[
  {
    "site_id": 4004472,
    "name": "100 Moffett",
    "street_address": "100 Moffett Boulevard",
    "city": "Mountain View",
    "state": "California",
    "lat": 37.39661,
    "long": -122.077675,
    "bed": "1,2",
    "bath": "1,2",
    "zip_code": "94,043",
    "region": "Bay Area",
    "rank": 1,
    "pinToTop": false,
    "pinToBottom": false,
    "cacheTimeout": 5,
    "amenityList": "S100000019,S100000029,P000000493,P000000838,S100000304,P000000096,P000000488,S100000049,P000000825,P000000490,P000000491,S100000309,P000000500,P000000835,P000000494,P000000202,P000000507,P000000495,P000000481,P000000496,P000000501,P000000508,P000000505,P000000499,P000000492"
  },
  {
    "site_id": 1241278,
    "name": "550 Moreland",
    "street_address": "550 Moreland Way",
    "city": "Santa Clara",
    "state": "California",
    "lat": 37.395568,
    "long": -121.944398,
    "bed": "0,1,2,3",
    "bath": "1,2",
    "zip_code": "95,054",
    "region": "Bay Area",
    "rank": 3,
    "pinToTop": false,
    "pinToBottom": false,
    "cacheTimeout": 5,
    "amenityList": "S100000029,P000000493,P000000487,S100000019,P000000503,P000000838,S100000304,P000000096,P000000488,S100000049,S100000278,P000000825,P000000615,P000000490,S100000025,S100000309,P000000492,P000000500,P000000835,P000000494,P000000507,P000000495,P000000511,P000000481,P000000496,P000000501,P000000508,P000000505,P000000499"
  },
  {
    "site_id": 1023334,
    "name": "Alderwood Apartments",
    "street_address": "900 Pepper Tree Lane",
    "city": "Santa Clara",
    "state": "California",
    "lat": 37.341902,
    "long": -121.983478,
    "bed": "1,2",
    "bath": "1,2",
    "zip_code": "95,051",
    "region": "Bay Area",
    "rank": 4,
    "pinToTop": false,
    "pinToBottom": false,
    "cacheTimeout": 5,
    "amenityList": "S100000029,P000000493,P000000509,S100000049,P000000825,P000000490,S100000309,P000000492,P000000500,P000000835,P000000494,P000000507,P000000495,P000000496,P000000501,P000000508,P000000499,S100000019"
  },
  {
    "site_id": 1023601,
    "name": "Beach Park Apartments",
    "street_address": "1999 Beach Park Boulevard",
    "city": "Foster City",
    "state": "California",
    "lat": 37.569424,
    "long": -122.264967,
    "bed": "1,2",
    "bath": "1,2",
    "zip_code": "94,404",
    "region": "Bay Area",
    "rank": 5,
    "pinToTop": false,
    "pinToBottom": false,
    "cacheTimeout": 5,
    "amenityList": "P000000493,P000000624,P000000509,S100000049,P000000825,P000000618,P000000490,P000000492,P000000835,P000000494,P000000507,P000000495,P000000511,P000000508,P000000505,P000000502,P000000499"
  },
  {
    "site_id": 1241372,
    "name": "Birch Pointe",
    "street_address": "17520 NW Cornell Road",
    "city": "Beaverton",
    "state": "Oregon",
    "lat": 45.535085,
    "long": -122.857433,
    "bed": "0,1,2,3",
    "bath": "1,2",
    "zip_code": "97,006",
    "region": "Portland",
    "rank": 6,
    "pinToTop": false,
    "pinToBottom": false,
    "cacheTimeout": 5,
    "amenityList": "P000000493,P000000487,S100000019,S100000029,P000000619,S100000049,P000000825,P000000615,P000000490,S100000309,P000000492,P000000835,P000000494,P000000507,P000000495,P000000481,P000000496,P000000501,P000000499"
  },
  {
    "site_id": 1023320,
    "name": "Boardwalk",
    "street_address": "3770 Flora Vista Avenue",
    "city": "Santa Clara",
    "state": "California",
    "lat": 37.34693,
    "long": -121.99203,
    "bed": "1,2",
    "bath": "1,2",
    "zip_code": "95,051",
    "region": "Bay Area",
    "rank": 7,
    "pinToTop": false,
    "pinToBottom": false,
    "cacheTimeout": 5,
    "amenityList": "S100000049,S100000019,S100000029,P000000493,P000000487,P000000509,P000000838,P000000825,P000000618,P000000490,S100000309,P000000492,P000000500,P000000835,P000000494,P000000507,P000000495,P000000481,P000000496,P000000501,P000000508,P000000499"
  },
  {
    "site_id": 1023708,
    "name": "Chesapeake Point",
    "street_address": "1633 Marina Court",
    "city": "San Mateo",
    "state": "California",
    "lat": 37.551939,
    "long": -122.285847,
    "bed": "1,2,3",
    "bath": "1,2",
    "zip_code": "94,404",
    "region": "Bay Area",
    "rank": 8,
    "pinToTop": false,
    "pinToBottom": false,
    "cacheTimeout": 5,
    "amenityList": "P000000493,S100000019,P000000837,P000000509,P000000488,S100000049,P000000825,P000000618,P000000490,P000000492,P000000835,P000000494,P000000507,P000000495,P000000502,P000000499,P000000508"
  },
  {
    "site_id": 1007931,
    "name": "Cliffside Apartments",
    "street_address": "2413 Cliffside Lane NW",
    "city": "Gig Harbor",
    "state": "Washington",
    "lat": 47.279799,
    "long": -122.55513,
    "bed": "1,2",
    "bath": "1,2",
    "zip_code": "98,335",
    "region": "Washington",
    "rank": 9,
    "pinToTop": false,
    "pinToBottom": false,
    "cacheTimeout": 5,
    "amenityList": "P000000495,P000000496,P000000501,P000000508,P000000510,P000000502,P000000499,S100000019,S100000278,P000000493,P000000221,P000000509,S100000049,P000000825,P000000618,P000000490,S100000309,P000000492,P000000500,P000000835,P000000494,P000000507"
  },
  {
    "site_id": 3845992,
    "name": "Cobalt",
    "street_address": "50 Saratoga Avenue",
    "city": "Santa Clara",
    "state": "California",
    "lat": 37.324149,
    "long": -121.969573,
    "bed": "1,2",
    "bath": "1,2",
    "zip_code": "95,051",
    "region": "Bay Area",
    "rank": 10,
    "pinToTop": false,
    "pinToBottom": false,
    "cacheTimeout": 5,
    "amenityList": "S100000025,S100000029,P000000192,S100000019,P000000503,P000000838,P000000488,P000000619,S100000049,P000000825,P000000490,P000000491,S100000309,P000000492,P000000497,P000000494,P000000202,P000000507,P000000495,P000000481,P000000496,P000000501,P000000508,P000000499,P000000096"
  },
  {
    "site_id": 5032570,
    "name": "Crystal Springs Terrace",
    "street_address": "2000 Crystal Springs Rd",
    "city": "San Bruno",
    "state": "California",
    "lat": 37.6062,
    "long": -122.426773,
    "bed": "0,1,2",
    "bath": "1,2",
    "zip_code": "94,066",
    "region": "Bay Area",
    "rank": 11,
    "pinToTop": false,
    "pinToBottom": false,
    "cacheTimeout": 5,
    "amenityList": "S100000049,P000000494,P000000501"
  },
  {
    "site_id": 1023542,
    "name": "Cupertino City Center",
    "street_address": "20350 Stevens Creek Boulevard",
    "city": "Cupertino",
    "state": "California",
    "lat": 37.321285,
    "long": -122.029449,
    "bed": "1,2",
    "bath": "1,2",
    "zip_code": "95,014",
    "region": "Bay Area",
    "rank": 12,
    "pinToTop": false,
    "pinToBottom": false,
    "cacheTimeout": 5,
    "amenityList": "P000000493,P000000487,P000000838,P000000096,P000000488,P000000825,P000000490,P000000492,P000000500,P000000835,P000000494,S100000035,P000000507,P000000498,P000000495,P000000508,P000000499"
  },
  {
    "site_id": 1023709,
    "name": "Cupertino Park Center",
    "street_address": "20380 Stevens Creek Boulevard",
    "city": "Cupertino",
    "state": "California",
    "lat": 37.320646,
    "long": -122.030314,
    "bed": "1,2,3",
    "bath": "1,2",
    "zip_code": "95,014",
    "region": "Bay Area",
    "rank": 13,
    "pinToTop": false,
    "pinToBottom": false,
    "cacheTimeout": 5,
    "amenityList": "S100000049,P000000825,P000000490,S100000309,P000000492,P000000500,P000000493,P000000487,P000000838,S100000029,P000000096,P000000488,P000000497,P000000494,S100000035,P000000507,P000000495,P000000499"
  },
  {
    "site_id": 1006837,
    "name": "Emerald Place",
    "street_address": "1815 NW 173rd Ave",
    "city": "Beaverton",
    "state": "Oregon",
    "lat": 45.534522,
    "long": -122.855871,
    "bed": "1,2",
    "bath": "1,2",
    "zip_code": "97,006",
    "region": "Portland",
    "rank": 14,
    "pinToTop": false,
    "pinToBottom": false,
    "cacheTimeout": 5,
    "amenityList": "S100000019,S100000029,P000000493,P000000509,P000000096,S100000049,P000000490,S100000309,P000000492,P000000835,P000000494,P000000507,P000000495,P000000511,P000000481,P000000496,P000000501,P000000508,P000000510,P000000499"
  },
  {
    "site_id": 1241127,
    "name": "Essex House",
    "street_address": "1330 SW 3rd Ave",
    "city": "Portland",
    "state": "Oregon",
    "lat": 45.51383,
    "long": -122.677586,
    "bed": "1,2",
    "bath": "1,2",
    "zip_code": "97,201",
    "region": "Portland",
    "rank": 15,
    "pinToTop": false,
    "pinToBottom": false,
    "cacheTimeout": 5,
    "amenityList": "P000000488,P000000490,S100000309,P000000492,P000000835,S100000049,S100000019,S100000029,P000000493,P000000192,S100000304,P000000621,P000000096,P000000494,P000000495,P000000511,P000000481,P000000496,P000000501,P000000508,P000000505,P000000502,P000000499"
  },
  {
    "site_id": 4655007,
    "name": "Gardens of Fontainbleu",
    "street_address": "10200 Miller Avenue",
    "city": "Cupertino",
    "state": "California",
    "lat": 37.319628,
    "long": -122.013595,
    "bed": "1,4",
    "bath": "1,2",
    "zip_code": "95,014",
    "region": "Bay Area",
    "rank": 16,
    "pinToTop": false,
    "pinToBottom": false,
    "cacheTimeout": 5,
    "amenityList": "S100000019,S100000029,P000000511,P000000510,P000000490,P000000507,P000000508,P000000493,P000000192,P000000096,S100000049,P000000825,P000000491,S100000309,P000000492,P000000497,P000000496,P000000501,P000000509"
  },
  {
    "site_id": 3421401,
    "name": "Hearth",
    "street_address": "2870 Kaiser Drive",
    "city": "Santa Clara",
    "state": "California",
    "lat": 37.341446,
    "long": -121.979125,
    "bed": "1,2",
    "bath": "1,2",
    "zip_code": "95,051",
    "region": "Bay Area",
    "rank": 17,
    "pinToTop": false,
    "pinToBottom": false,
    "cacheTimeout": 5,
    "amenityList": "S100000049,P000000825,P000000490,P000000491,S100000309,P000000492,P000000500,P000000497,P000000494,P000000202,P000000507,P000000495,P000000508,P000000499,P000000493,P000000192,S100000019,P000000503,P000000838,S100000304,P000000621,P000000096,P000000488,P000000619"
  },
  {
    "site_id": 1023269,
    "name": "Heatherstone",
    "street_address": "877 Heatherstone Way",
    "city": "Mountain View",
    "state": "California",
    "lat": 37.368801,
    "long": -122.064063,
    "bed": "1,2",
    "bath": "1,2",
    "zip_code": "94,040",
    "region": "Bay Area",
    "rank": 18,
    "pinToTop": false,
    "pinToBottom": false,
    "cacheTimeout": 5,
    "amenityList": "S100000029,P000000493,S100000019,P000000837,P000000509,S100000049,P000000825,P000000490,S100000309,P000000492,P000000497,P000000494,P000000507,P000000495,P000000481,P000000496,P000000501,P000000508,P000000499"
  },
  {
    "site_id": 4884573,
    "name": "Hiro Apartments",
    "street_address": "761 W Middlefield",
    "city": "Mountain View",
    "state": "California",
    "lat": 37.399924,
    "long": -122.072182,
    "bed": "1,2,3",
    "bath": "1,2,3",
    "zip_code": "94,040",
    "region": "Bay Area",
    "rank": 19,
    "pinToTop": false,
    "pinToBottom": false,
    "cacheTimeout": 5,
    "amenityList": "P000000838,S100000049,P000000825"
  },
  {
    "site_id": 4372567,
    "name": "Holloway",
    "street_address": "20200 Lucille Ave",
    "city": "Cupertino",
    "state": "California",
    "lat": 37.333631,
    "long": -122.024778,
    "bed": "1,2",
    "bath": "1,2",
    "zip_code": "95,014",
    "region": "Bay Area",
    "rank": 20,
    "pinToTop": false,
    "pinToBottom": false,
    "cacheTimeout": 5,
    "amenityList": "P000000493,P000000509,P000000838,S100000049,P000000825,P000000490,S100000309,P000000492,P000000835,P000000507,P000000499,P000000495"
  },
  {
    "site_id": 1241234,
    "name": "Icon at Doyle",
    "street_address": "5540 Doyle Street",
    "city": "Emeryville",
    "state": "California",
    "lat": 37.839111,
    "long": -122.286788,
    "bed": "1,2,3",
    "bath": "1,2",
    "zip_code": "94,608",
    "region": "Bay Area",
    "rank": 21,
    "pinToTop": false,
    "pinToBottom": false,
    "cacheTimeout": 5,
    "amenityList": ""
  },
  {
    "site_id": 1241235,
    "name": "Icon at Park",
    "street_address": "1401 Park Avenue",
    "city": "Emeryville",
    "state": "California",
    "lat": 37.83064,
    "long": -122.287098,
    "bed": "1,2,3",
    "bath": "1,2",
    "zip_code": "94,608",
    "region": "Bay Area",
    "rank": 22,
    "pinToTop": false,
    "pinToBottom": false,
    "cacheTimeout": 5,
    "amenityList": "P000000493,P000000838,S100000029,P000000096,P000000488,S100000049,P000000490,S100000309,P000000492,P000000500,P000000497,P000000494,P000000495,P000000481,P000000496,P000000501,P000000502"
  },
  {
    "site_id": 1088225,
    "name": "Miramar",
    "street_address": "1288 E Hillsdale Boulevard",
    "city": "Foster City",
    "state": "California",
    "lat": 37.568255,
    "long": -122.265721,
    "bed": "1,2,3",
    "bath": "1,2",
    "zip_code": "94,404",
    "region": "Bay Area",
    "rank": 30,
    "pinToTop": false,
    "pinToBottom": false,
    "cacheTimeout": 5,
    "amenityList": "P000000493,P000000624,P000000096,P000000488,P000000618,P000000490,P000000492,P000000835,P000000494,P000000507,P000000495,P000000508,P000000505,P000000502,P000000499"
  },
  {
    "site_id": 3848844,
    "name": "Montrose",
    "street_address": "1720 West El Camino Real",
    "city": "Mountain View",
    "state": "California",
    "lat": 37.391032,
    "long": -122.093822,
    "bed": "1,2",
    "bath": "1,2",
    "zip_code": "94,040",
    "region": "Bay Area",
    "rank": 32,
    "pinToTop": false,
    "pinToBottom": false,
    "cacheTimeout": 5,
    "amenityList": "P000000192,P000000838,S100000049,P000000825,S100000025,P000000835"
  },
  {
    "site_id": 1023273,
    "name": "Orchard Glen",
    "street_address": "101 Saratoga Avenue",
    "city": "Santa Clara",
    "state": "California",
    "lat": 37.326216,
    "long": -121.966673,
    "bed": "1,2",
    "bath": "1,2",
    "zip_code": "95,051",
    "region": "Bay Area",
    "rank": 33,
    "pinToTop": false,
    "pinToBottom": false,
    "cacheTimeout": 5,
    "amenityList": "S100000309,P000000492,P000000835,P000000494,P000000507,P000000495,P000000508,P000000499,P000000493,P000000192,P000000487,P000000509,P000000838,S100000049,P000000825,P000000490"
  },
  {
    "site_id": 3839799,
    "name": "Parallel",
    "street_address": "1141 W Olive Avenue",
    "city": "Sunnyvale",
    "state": "California",
    "lat": 37.374844,
    "long": -122.053182,
    "bed": "1,2",
    "bath": 1,
    "zip_code": "94,065",
    "region": "Bay Area",
    "rank": 34,
    "pinToTop": false,
    "pinToBottom": false,
    "cacheTimeout": 5,
    "amenityList": "S100000019,S100000029,P000000493,S100000049,P000000490,S100000309,P000000492,P000000835,P000000497,P000000507,P000000495,P000000481,P000000496,P000000501,P000000508"
  },
  {
    "site_id": 1023321,
    "name": "Park Central",
    "street_address": "1050 Benton Street",
    "city": "Santa Clara",
    "state": "California",
    "lat": 37.350115,
    "long": -121.946029,
    "bed": "1,2",
    "bath": "1,2",
    "zip_code": "95,050",
    "region": "Bay Area",
    "rank": 35,
    "pinToTop": false,
    "pinToBottom": false,
    "cacheTimeout": 5,
    "amenityList": "S100000049,S100000019,S100000029,P000000493,P000000192,P000000509,P000000825,P000000490,S100000309,P000000492,P000000500,P000000835,P000000494,P000000507,P000000495,P000000496,P000000499,P000000501,P000000508,P000000502"
  }
]